     3.03           OBSERVATION DATA    M (MIXED)           RINEX VERSION / TYPE
Spider V7.5.2.8679  NW                  20210201 011021 UTC PGM / RUN BY / DATE
WaRINo 1.6b         SAPOS    (L)        20210202 032320 LCL COMMENT
WaRINo D:\02_RINEX\2143\032\temp_nw\259000DEU_S_2021032*... COMMENT
..._MO.rnx +R15 +Q                                          COMMENT
THIS RINEX FILE IS CREATED FROM RTCM V3.0 DATA              COMMENT
SNR is mapped to RINEX snr flag value [1-9]                 COMMENT
LX:     < 12dBHz -> 1; 12-17dBHz -> 2; 18-23dBHz -> 3       COMMENT
       24-29dBHz -> 4; 30-35dBHz -> 5; 36-41dBHz -> 6       COMMENT
       42-47dBHz -> 7; 48-53dBHz -> 8; >= 54dBHz -> 9       COMMENT
Product                                                     COMMENT
2590                                                        MARKER NAME
VREDEN                                                      MARKER NUMBER
Sapos-Operator      BezReg Koeln   SAPOS NW                 OBSERVER / AGENCY
3022604             SEPT POLARX5        5.3.2               REC # / TYPE / VERS
727179              LEIAR25.R4      LEIT                    ANT # / TYPE
  3902867.3420   463565.1850  5006557.5930                  APPROX POSITION XYZ
        0.0580        0.0000        0.0000                  ANTENNA: DELTA H/E/N
G   16 C1C L1C D1C S1C C2L C2W L2L L2W D2L D2W S2L S2W C5Q  SYS / # / OBS TYPES
       L5Q D5Q S5Q                                          SYS / # / OBS TYPES
R    8 C1C L1C D1C S1C C2P L2P D2P S2P                      SYS / # / OBS TYPES
E   16 C1C L1C D1C S1C C5Q L5Q D5Q S5Q C7Q L7Q D7Q S7Q C8Q  SYS / # / OBS TYPES
       L8Q D8Q S8Q                                          SYS / # / OBS TYPES
C   12 C2I L2I D2I S2I C6I L6I D6I S6I C7I L7I D7I S7I      SYS / # / OBS TYPES
DBHZ                                                        SIGNAL STRENGTH UNIT
    15                                                      INTERVAL
 24 R01  1 R02 -4 R03  5 R04  6 R05  1 R06 -4 R07  5 R08  6 GLONASS SLOT / FRQ #
    R09 -2 R10 -7 R11  0 R12 -1 R13 -2 R14 -7 R15  0 R16 -1 GLONASS SLOT / FRQ #
    R17  4 R18 -3 R19  3 R20  2 R21  4 R22 -3 R23  3 R24  2 GLONASS SLOT / FRQ #
  2021    02    01    00    00    0.0000000     GPS         TIME OF FIRST OBS
  2021    02    01    23    59   45.0000000     GPS         TIME OF LAST OBS
     0                                                      RCV CLOCK OFFS APPL
G L2S -0.25000                                              SYS / PHASE SHIFT
G L2X -0.25000                                              SYS / PHASE SHIFT
R L2P  0.25000                                              SYS / PHASE SHIFT
E L8Q -0.25000                                              SYS / PHASE SHIFT
                                                            GLONASS COD/PHS/BIS
    18    18  1929     7                                    LEAP SECONDS
                                                            END OF HEADER
> 2021  2  1  0  0  0.0000000  0 44
G01  21410750.089   112514277.810 7      2563.237          45.000    21410750.357    21410750.411    87673467.043 7  87673471.787 8      1997.240        1997.325          45.000          48.000    21410748.499    84020407.181 8      1914.080          51.000
G03  25063741.990   131710847.622 7      3867.204          42.000    25063744.134    25063741.883   102631823.324 6 102631828.081 6      3013.503        3013.405          38.000          37.000    25063741.811    98355502.600 7      2887.784          44.000
G08  20536559.300   107920362.866 8      -958.119          49.000    20536560.247    20536559.460    84093790.463 8  84093795.210 8      -746.619        -746.587          48.000          53.000    20536557.620    80589880.829 8      -715.501          53.000
G10  22359060.389   117497671.629 8     -2630.943          48.000    22359060.246    22359060.246    91556625.006 7  91556638.749 8     -2050.063       -2050.090          45.000          51.000    22359057.619    87741766.973 8     -1964.688          49.000
G14  23340208.431   122653621.696 7      1325.016          43.000    23340205.733    23340205.536    95574237.491 7  95574237.230 5      1032.290        1032.483          42.000          30.000    23340208.931    91591988.848 7       989.382          47.000
G20  25099786.418   131900299.961 6     -3593.754          38.000                    25099784.328                   102779404.192 4                     -2800.327                          26.000
G21  21057550.445   110658200.925 7       914.494          47.000                    21057546.961                    86227175.924 6                       712.592                          40.000
G22  22869482.400   120179946.048 7      3133.598          46.000                    22869478.183                    93646698.072 5                      2441.762                          34.000
G23  25025357.292   131509151.729 7     -3640.679          42.000    25025352.878    25025353.789   102474659.885 5 102474660.616 3     -2836.939       -2836.885          35.000          22.000    25025356.631    98204896.580 6     -2718.487          40.000
G24  25377161.276   133357877.155 5       938.179          35.000    25377160.400    25377160.132   103915230.546 5 103915229.288 4       731.063         731.051          32.000          25.000    25377159.185    99585428.377 6       700.689          37.000
G27  22404416.025   117736011.418 7     -3214.077          47.000    22404416.061    22404415.757    91742347.018 7  91742356.774 8     -2504.436       -2504.476          44.000          49.000    22404414.757    87919755.448 8     -2400.143          50.000
G28  23955587.455   125887458.033 7      1766.315          42.000                    23955583.506                    98094101.615 4                      1376.345                          25.000
G32  22622375.381   118881389.029 8      1778.392          49.000    22622375.113    22622375.256    92634856.547 7  92634856.307 8      1385.806        1385.757          44.000          50.000    22622373.254    88775062.629 7      1328.071          47.000
R01  22549785.173   120541543.120 7     -3769.385          45.000    22549791.606    93754566.965 6     -2931.662          39.000
R02  19585209.765   104510444.017 8       750.393          52.000    19585212.767    81285921.582 8       583.683          49.000
R03  21853282.643   116982328.431 8      4146.196          49.000    21853287.968    90986281.237 7      3224.907          46.000
R10  24271180.578   129379044.529 7      2872.558          44.000
R16  23101490.793   123404015.010 7     -3111.069          44.000    23101494.152    95980894.132 6     -2419.669          38.000
R17  19560103.609   104670097.344 8     -1397.945          52.000    19560106.593    81410097.928 8     -1087.260          49.000
R18  19981483.189   106662529.121 8      2095.392          51.000    19981486.173    82959765.536 8      1629.778          49.000
R19  23574922.712   126109948.332 6      3761.564          36.000    23574926.732    98085532.022 6      2925.612          39.000
R24  23336630.392   124791455.894 8     -3643.045          49.000    23336633.876    97060042.265 6     -2833.485          40.000
E02  28479143.663   149658908.442 6     -3145.102          39.000    28479144.074   111758277.644 6     -2348.453          38.000    28479142.412   114673705.272 6     -2409.815          40.000    28479143.073   113215994.782 7     -2379.137          42.000
E04  27428967.656   144140220.436 6     -2067.211          40.000    27428967.210   107637190.031 7     -1543.661          42.000    27428965.780   110445105.154 7     -1583.938          43.000    27428965.959   109041145.416 7     -1563.799          45.000
E05  26060354.296   136948090.807 7      2830.377          46.000    26060355.440   102266435.973 7      2113.630          47.000    26060353.349   104934250.187 8      2168.796          48.000    26060354.224   103600347.404 8      2141.207          50.000
E09  23121130.010   121502373.125 8       534.318          49.000    23121130.260    90732299.901 8       399.011          48.000    23121128.634    93099220.247 8       409.424          50.000    23121129.260    91915766.898 8       404.216          52.000
E11  26552168.365   139532601.180 6     -2642.675          36.000    26552166.810   104196423.646 5     -1973.589          35.000    26552165.148   106914586.028 6     -2025.056          38.000    26552165.774   105555504.662 6     -1999.333          40.000
E15  26806495.327   140869096.031 6      2533.352          41.000    26806497.007   105194473.155 7      1891.792          43.000    26806495.435   107938668.528 7      1941.200          44.000    26806496.078   106566571.165 7      1916.504          47.000
E27  26614266.829   139858917.238 7       243.615          42.000    26614267.312   104440099.758 7       181.950          44.000    26614265.900   107164618.411 7       186.717          46.000    26614266.311   105802359.407 8       184.331          48.000
E30  25438435.978   133679872.630 7     -2298.880          44.000    25438437.247    99825877.602 7     -1716.764          45.000    25438435.728   102430024.530 7     -1761.558          46.000    25438435.871   101127951.889 8     -1739.160          48.000
E36  24139693.356   126854971.215 8     -1556.567          48.000    24139694.965    94729373.537 8     -1162.349          50.000    24139693.196    97200568.178 8     -1192.674          51.000    24139693.893    95964970.181 9     -1177.511          54.000
C02  41521596.231   216213852.978 5       -24.504          35.000    41521596.517   175691461.047 5       -19.705          33.000    41521592.068   167190241.811 6       -18.834          36.000
C05  40223041.198   209451938.469 6       -29.062          41.000    40223040.162   170196874.153 6       -23.538          40.000    40223036.731   161961531.712 6       -22.490          41.000
C06  39457543.762   205465789.100 7       484.412          42.000    39457540.671   166957774.473 7       393.591          43.000    39457540.814   158879171.735 7       374.512          44.000
C09  38891870.303   202520188.433 7      1315.657          44.000    38891863.870   164564215.437 8      1069.030          48.000    38891868.820   156601454.040 7      1017.362          45.000
C16  39228831.865   204274835.618 7       502.297          45.000    39228827.845   165990016.616 8       408.197          50.000    39228833.259   157958264.344 7       388.507          44.000
C26  26793421.260   139520377.095 7      1353.153          43.000    26793423.297   113371738.692 7      1099.499          43.000
C27  22059412.634   114869172.028 8     -1634.244          51.000    22059414.350    93340625.807 8     -1327.954          51.000
C28  26253580.297   136709302.007 7     -3175.922          44.000    26253582.155   111087522.914 7     -2580.706          42.000
C29  26090513.168   135860150.917 7      3159.661          42.000    26090513.865   110397502.312 7      2567.379          43.000
C30  22007891.202   114600887.286 8      1440.901          50.000    22007894.722    93122624.956 8      1170.837          52.000
C32  23548905.271   122625334.099 8      2721.194          50.000    23548909.578    99643150.297 8      2211.199          50.000
C33  25565524.293   133126405.721 7     -2913.047          46.000    25565538.070   108176179.401 7     -2367.047          46.000
C36  27018089.469   140690256.168 6     -2625.791          41.000    27018096.652   114322383.684 6     -2133.723          41.000
> 2021  2  1  0  0 15.0000000  0 43
G01  21403437.799   112475848.593 7      2557.742          46.000    21403437.299    21403437.531    87643522.204 7  87643526.948 8      1992.940        1993.044          45.000          49.000    21403435.708    83991710.045 8      1909.988          50.000
G03  25052699.488   131652832.207 5      3865.281          35.000    25052703.062    25052702.651   102586616.564 6 102586621.289 5      3011.980        3011.896          38.000          34.000    25052700.524    98312179.373 6      2886.212          39.000
G08  20539303.606   107934784.876 8      -967.748          49.000    20539304.678    20539303.874    84105028.386 8  84105033.137 8      -754.081        -754.088          48.000          53.000    20539302.087    80600650.505 8      -722.674          53.000
G10  22366574.903   117537159.947 8     -2637.022          49.000    22366574.527    22366574.617    91587395.128 7  91587408.863 8     -2054.888       -2054.826          45.000          51.000    22366572.187    87771255.003 8     -1969.257          49.000
G14  23336436.477   122633801.930 7      1314.850          42.000    23336433.761    23336433.868    95558793.490 7  95558793.244 5      1024.483        1024.560          42.000          30.000    23336437.299    91577188.355 7       981.805          46.000
G21  21054943.909   110644502.004 7       909.157          47.000                    21054940.120                    86216501.441 6                       708.430                          40.000
G22  22860541.545   120132959.351 7      3128.373          47.000                    22860536.774                    93610085.073 5                      2437.694                          35.000
G23  25035746.574   131563751.860 6     -3642.549          40.000    25035744.644    25035743.393   102517205.477 6 102517206.228 3     -2838.284       -2838.351          38.000          22.000    25035747.217    98245669.447 6     -2719.976          40.000
G24  25374491.662   133343850.436 5       928.983          35.000    25374491.715    25374491.161   103904300.651 5 103904299.402 4       724.154         723.891          31.000          24.000    25374490.232    99574953.883 6       693.480          37.000
G27  22413594.288   117784242.658 7     -3219.635          47.000    22413594.056    22413593.806    91779929.802 7  91779939.553 8     -2508.931       -2508.804          44.000          49.000    22413592.823    87955772.278 8     -2404.329          49.000
G28  23950552.607   125861003.500 7      1758.048          42.000                    23950549.409                    98073487.690 4                      1369.907                          25.000
G32  22617307.511   118854757.750 8      1769.435          49.000    22617308.280    22617307.386    92614104.918 7  92614104.672 8      1378.910        1378.776          44.000          50.000    22617305.510    88755175.659 7      1321.304          47.000
R01  22560367.888   120598114.862 7     -3776.514          45.000    22560373.892    93798567.207 6     -2937.257          39.000
R02  19583116.338   104499272.112 8       736.061          53.000    19583119.590    81277232.327 8       572.493          50.000
R03  21841671.853   116920161.367 8      4139.791          51.000    21841673.908    90937929.071 7      3219.824          46.000
R10  24263106.318   129336004.660 7      2863.095          43.000
R16  23110233.587   123450722.032 7     -3119.485          43.000    23110236.518    96017221.762 6     -2426.247          38.000
R17  19564029.827   104691111.112 8     -1406.896          52.000    19564033.418    81426441.975 8     -1094.236          49.000
R18  19975600.778   106631128.585 8      2088.276          51.000    19975604.102    82935342.897 8      1624.282          49.000
R19  23564372.304   126053510.606 5      3760.543          34.000    23564376.396    98041635.974 6      2924.959          39.000
R24  23346850.222   124846105.469 8     -3646.523          50.000    23346854.528    97102547.520 6     -2836.312          41.000
E02  28488115.288   149706059.315 6     -3144.807          37.000    28488116.771   111793487.718 6     -2348.267          39.000    28488115.288   114709833.854 6     -2409.597          40.000    28488115.449   113251664.111 7     -2378.940          43.000
E04  27434872.689   144171250.494 6     -2073.037          41.000    27434871.921   107660361.825 7     -1548.058          42.000    27434870.063   110468881.439 7     -1588.515          43.000    27434870.813   109064619.455 7     -1568.281          45.000
E05  26052276.354   136905642.538 7      2826.378          46.000    26052277.551   102234737.594 7      2110.621          47.000    26052275.818   104901724.899 8      2165.613          48.000    26052276.568   103568235.570 8      2138.107          50.000
E09  23119611.912   121494397.520 8       526.155          49.000    23119612.662    90726344.103 8       392.867          48.000    23119610.911    93093109.076 8       403.186          50.000    23119611.554    91909733.413 8       398.026          52.000
E11  26559709.736   139572231.716 6     -2644.136          37.000    26559707.520   104226017.884 5     -1974.280          34.000    26559706.358   106944952.272 6     -2026.004          37.000    26559707.216   105585484.899 6     -2000.135          38.000
E15  26799262.608   140831083.884 7      2531.911          42.000    26799263.466   105166087.470 7      1890.783          43.000    26799262.215   107909542.343 7      1940.121          44.000    26799262.626   106537815.232 7      1915.451          47.000
E27  26613578.925   139855303.042 7       235.294          42.000    26613579.461   104437400.850 7       175.700          44.000    26613578.068   107161849.092 7       180.260          46.000    26613578.586   105799625.294 8       177.985          48.000
E30  25445001.808   133714375.557 7     -2304.362          44.000    25445003.076    99851642.765 7     -1720.816          45.000    25445000.753   102456461.831 7     -1765.737          45.000    25445001.593   101154053.121 8     -1743.282          48.000
E36  24144138.204   126878326.737 8     -1560.580          48.000    24144139.402    94746814.344 8     -1165.323          50.000    24144137.686    97218463.965 8     -1195.742          51.000    24144138.312    95982638.477 9     -1180.532          54.000
C02  41521662.829   216214202.428 5       -24.987          34.000    41521663.669   175691744.976 5       -20.295          33.000    41521659.148   167190512.035 6       -19.496          36.000
C05  40223122.788   209452360.463 6       -30.011          41.000    40223121.269   170197217.065 6       -24.376          40.000    40223117.982   161961858.031 6       -23.260          41.000
C06  39456149.567   205458527.868 7       480.762          42.000    39456146.226   166951874.127 7       390.645          43.000    39456145.994   158873556.886 7       371.794          44.000
C09  38888081.623   202500456.367 7      1312.399          44.000    38888074.565   164548181.523 8      1066.412          48.000    38888078.961   156586195.966 7      1014.842          45.000
C16  39227385.457   204267307.283 7       498.547          44.000    39227382.116   165983899.232 8       405.089          49.000    39227387.530   157952442.972 7       385.407          44.000
C26  26789532.210   139500117.891 7      1345.244          44.000    26789532.979   113355276.458 7      1093.123          44.000
C27  22064125.071   114893712.118 8     -1640.686          51.000    22064126.965    93360566.630 8     -1333.185          51.000
C28  26262727.110   136756935.616 7     -3178.136          44.000    26262730.523   111126229.122 7     -2582.476          43.000
C29  26081409.366   135812744.472 7      3158.367          43.000    26081409.491   110358980.700 7      2566.372          42.000
C30  22003745.338   114579298.410 8      1434.709          50.000    22003748.823    93105082.233 8      1165.817          52.000
C32  23541071.420   122584539.863 8      2715.098          50.000    23541075.476    99610001.653 8      2206.207          50.000
C33  25573918.267   133170113.910 7     -2917.592          45.000    25573931.311   108211695.892 7     -2370.743          45.000
C36  27025652.926   140729646.640 6     -2629.190          41.000    27025661.557   114354391.650 6     -2136.320          40.000
> 2021  2  1  0  0 30.0000000  0 44
G01  21396137.660   112437488.756 7      2554.536          46.000    21396138.142    21396137.910    87613631.426 7  87613636.170 8      1990.564        1990.544          45.000          48.000    21396136.159    83963064.720 8      1907.602          51.000
G03  25041664.723   131594832.077 6      3865.640          40.000    25041665.616    25041665.741   102541421.760 6 102541426.529 5      3012.477        3012.182          36.000          33.000    25041664.544    98268867.568 6      2886.736          41.000
G08  20542072.930   107949338.135 8      -975.002          49.000    20542074.037    20542073.251    84116368.581 8  84116373.330 8      -759.807        -759.745          48.000          53.000    20542071.482    80611518.192 8      -728.107          53.000
G10  22374104.087   117576726.717 8     -2640.883          49.000    22374104.301    22374103.926    91618226.361 7  91618240.110 8     -2057.797       -2057.831          45.000          51.000    22374101.478    87800801.606 8     -1972.093          49.000
G14  23332690.987   122614122.504 7      1306.876          42.000    23332689.432    23332689.003    95543458.870 7  95543458.613 5      1018.217        1018.352          42.000          30.000    23332692.291    91562492.675 7       975.901          46.000
G20  25120300.968   132008073.240 7     -3594.730          43.000                    25120301.486                   102863435.656 1                     -2801.060                          11.000
G21  21052349.630   110630870.933 7       906.050          47.000                    21052346.253                    86205879.825 6                       706.011                          40.000
G22  22851613.002   120086038.959 7      3125.407          47.000                    22851607.963                    93573523.733 5                      2435.382                          35.000
G23  25046138.858   131618367.568 6     -3642.003          40.000    25046136.231    25046136.875   102559763.088 6 102559763.828 3     -2838.053       -2837.923          37.000          22.000    25046139.394    98286453.911 6     -2719.699          40.000
G24  25371846.582   133329953.886 5       921.799          34.000    25371847.529    25371846.153   103893472.157 5 103893470.897 3       718.488         718.272          31.000          23.000    25371846.599    99564576.607 6       688.309          38.000
G27  22422785.024   117832544.671 7     -3222.924          47.000    22422785.792    22422785.220    91817567.743 7  91817577.481 8     -2511.408       -2511.369          44.000          49.000    22422784.237    87991841.963 8     -2406.709          49.000
G28  23945539.882   125834659.568 7      1752.123          42.000                    23945536.469                    98052959.942 4                      1365.291                          25.000
G32  22612263.265   118828247.280 8      1762.907          50.000    22612262.729    22612262.586    92593447.418 7  92593447.172 8      1373.715        1373.693          44.000          50.000    22612260.584    88735378.884 7      1316.426          47.000
R01  22570968.435   120654780.656 7     -3781.306          45.000    22570973.903    93842640.616 6     -2940.985          38.000
R02  19581060.506   104488303.329 8       724.063          52.000    19581064.241    81268701.061 8       563.234          50.000
R03  21830073.320   116858077.726 8      4135.695          50.000    21830075.500    90889641.767 7      3216.689          45.000
R10  24255056.126   129293095.729 7      2855.795          44.000
R16  23118999.237   123497540.796 7     -3125.438          44.000    23119001.131    96053636.346 6     -2430.738          37.000
R17  19567979.810   104712247.252 8     -1413.610          52.000    19567983.062    81442881.178 8     -1099.317          49.000
R18  19969736.808   106599821.933 8      2083.525          51.000    19969739.364    82910993.269 8      1620.626          49.000
R19  23553822.862   125997075.431 5      3761.647          34.000    23553826.257    97997741.963 6      2925.853          39.000
R24  23357077.110   124900794.086 8     -3647.751          50.000    23357081.560    97145083.057 6     -2836.885          41.000
E02  28497085.931   149753193.614 6     -3142.016          38.000    28497086.360   111828685.424 6     -2346.457          40.000    28497084.787   114745949.763 6     -2407.660          41.000    28497084.984   113287320.917 7     -2377.058          43.000
E04  27440792.000   144202357.029 7     -2076.686          42.000    27440791.196   107683590.729 7     -1550.927          42.000    27440789.266   110492716.310 7     -1591.207          43.000    27440790.213   109088151.343 7     -1571.057          45.000
E05  26044208.043   136863242.293 7      2824.629          46.000    26044209.205   102203075.079 7      2109.333          47.000    26044207.239   104869236.398 8      2164.389          48.000    26044208.043   103536160.063 8      2136.857          50.000
E09  23118115.542   121486532.162 8       520.208          49.000    23118115.899    90720470.622 8       388.478          48.000    23118114.112    93087082.374 8       398.623          50.000    23118114.809    91903783.321 8       393.549          52.000
E11  26567251.786   139611869.706 5     -2643.062          33.000    26567249.427   104255617.659 5     -1973.586          30.000    26567250.160   106975324.179 6     -2025.197          36.000    26567249.570   105615470.745 6     -1999.426          37.000
E15  26792030.300   140793081.386 6      2532.699          41.000    26792031.944   105137708.986 7      1891.286          43.000    26792030.746   107880423.555 7      1940.638          45.000    26792030.979   106509066.593 7      1915.963          47.000
E27  26612912.875   139851802.287 7       229.181          42.000    26612913.161   104434786.654 7       171.072          44.000    26612911.660   107159166.706 7       175.541          46.000    26612912.429   105796977.003 8       173.316          48.000
E30  25451580.306   133748948.202 7     -2307.740          43.000    25451581.968    99877459.975 7     -1723.185          45.000    25451579.770   102482952.532 7     -1768.056          45.000    25451580.610   101180207.077 8     -1745.622          48.000
E36  24148591.379   126901729.831 8     -1562.299          48.000    24148592.845    94764290.677 8     -1166.636          50.000    24148591.201    97236396.204 8     -1197.080          51.000    24148591.773    96000342.764 9     -1181.858          54.000
C02  41521729.677   216214551.756 5       -24.054          34.000    41521730.588   175692028.824 5       -19.097          32.000    41521725.996   167190782.126 6       -18.416          36.000
C05  40223204.021   209452782.793 6       -28.710          41.000    40223202.305   170197560.243 6       -23.104          40.000    40223199.018   161962184.597 6       -22.134          41.000
C06  39454762.056   205451306.941 7       479.629          42.000    39454759.625   166946006.534 7       389.797          43.000    39454759.322   158867973.213 7       370.862          45.000
C09  38884299.591   202480759.201 7      1311.557          45.000    38884292.050   164532175.957 8      1065.740          48.000    38884296.642   156570964.867 7      1014.104          45.000
C16  39225947.751   204259823.069 7       497.059          44.000    39225944.785   165977817.688 8       403.893          49.000    39225950.199   157946655.686 7       384.300          44.000
C26  26785660.529   139479963.868 6      1339.693          36.000    26785661.798   113338899.757 5      1088.582          34.000
C27  22068853.857   114918336.081 8     -1644.816          52.000    22068855.752    93380575.615 8     -1336.559          51.000
C28  26271878.462   136804588.910 7     -3178.080          44.000    26271881.786   111164951.311 7     -2582.397          43.000
C29  26072305.724   135765344.300 7      3159.328          42.000    26072307.493   110320464.158 7      2567.256          42.000
C30  21999615.003   114557790.313 8      1430.703          50.000    21999618.416    93087605.135 8      1162.597          52.000
C32  23533252.257   122543824.027 8      2711.352          50.000    23533256.188    99576916.706 8      2203.224          50.000
C33  25582321.854   133213877.574 7     -2919.892          45.000    25582336.399   108247257.452 7     -2372.650          46.000
C36  27033224.388   140769073.057 6     -2630.104          41.000    27033232.822   114386428.841 6     -2137.138          40.000