     3.03           OBSERVATION DATA    M: Mixed            RINEX VERSION / TYPE
Geo++ RINEX Logger  Geo++               20240316 044648 UTC PGM / RUN BY / DATE
************************************************************COMMENT
This file was generated by the Geo++ RINEX Logger App       COMMENT
for Android devices (Version 2.1.6). If you encounter       COMMENT
any issues, please send an email to android@geopp.de        COMMENT
Filtering Mode: BEST                                        COMMENT
************************************************************COMMENT
Geo++                                                       MARKER NAME
GEODETIC                                                    MARKER TYPE
Geo++               Geo++                                   OBSERVER / AGENCY
unknown             HUAWEI              ALN-AL00            REC # / TYPE / VERS
unknown             ALN-AL00                                ANT # / TYPE
 -2265675.9306  5005315.8135  3228659.1891                  APPROX POSITION XYZ
        0.0000        0.0000        0.0000                  ANTENNA: DELTA H/E/N
G    8 C1C L1C D1C S1C C5Q L5Q D5Q S5Q                      SYS / # / OBS TYPES
R    4 C1C L1C D1C S1C                                      SYS / # / OBS TYPES
E   12 C1B L1B D1B S1B C1C L1C D1C S1C C5Q L5Q D5Q S5Q      SYS / # / OBS TYPES
C    4 C2I L2I D2I S2I                                      SYS / # / OBS TYPES
J    8 C1C L1C D1C S1C C5Q L5Q D5Q S5Q                      SYS / # / OBS TYPES
  2024     3    16     4    47    6.0000049     GPS         TIME OF FIRST OBS
 24 R01  1 R02 -4 R03  5 R04  6 R05  1 R06 -4 R07  5 R08  6 GLONASS SLOT / FRQ #
    R09 -2 R10 -5 R11  0 R12 -1 R13 -2 R14 -7 R15  0 R16 -1 GLONASS SLOT / FRQ #
    R17  4 R18 -3 R19  3 R20  2 R21  4 R22 -3 R23  3 R24  2 GLONASS SLOT / FRQ #
G L1C                                                       SYS / PHASE SHIFT
G L5Q -0.25000                                              SYS / PHASE SHIFT
R L1C                                                       SYS / PHASE SHIFT
E L1B                                                       SYS / PHASE SHIFT
E L1C +0.50000                                              SYS / PHASE SHIFT
E L5Q -0.25000                                              SYS / PHASE SHIFT
C L2I                                                       SYS / PHASE SHIFT
J L1C                                                       SYS / PHASE SHIFT
J L5Q -0.25000                                              SYS / PHASE SHIFT
 C1C    0.000 C1P    0.000 C2C    0.000 C2P    0.000        GLONASS COD/PHS/BIS
                                                            END OF HEADER
> 2024  3 16  4 47  6.0000049  2  0
> 2024  3 16  4 47  6.0000049  0 31
C07  36574652.595                         216.123          37.000  
C09  36387678.934                        -622.235          26.000  
C10  36951055.217                         287.757          33.000  
C16  37201216.434                       -1117.197          22.000  
C23  22609479.883                       -1306.858          24.000  
C27  23860365.413                        2754.073          25.000  
C28  21524024.628                         535.340          13.000  
C37  22291942.409                        1598.992          31.000  
C39  37925867.568                       -1342.170          19.000  
C40  36454458.004                          16.852          37.000  
C43  23883855.651                       -2330.704          26.000  
C46  26009528.378                        3243.898          15.000  
E13                                                                                                                                  23651196.917                         799.735          28.000  
E15                                                                                                                                  25770708.010                       -1229.050          30.000  
E19                                                                                                                                  27249960.145                       -1219.218          14.000  
E21                                                                                                                                  24201859.002                         956.310          27.000  
E27                                                                                                                                  24754867.262                        -437.347          32.000  
G02  20643407.966                         757.884          34.000  
G07  20530911.746                         462.299          36.000  
G08  21761972.600                       -2053.904          37.000    21761988.189                       -1533.649          38.000  
G09  24935216.709                       -2287.637          11.000  
G16  25485588.294                       -2307.342          14.000  
G17  23396054.349                        2457.672          32.000  
G21  20383845.857                        -607.097          29.000  
G27  24692212.437                       -2836.413          24.000    24692256.806                       -2117.813          15.000  
G30  21857848.926                        2248.685          40.000    21857866.314                        1680.078          24.000  
J02  38927688.522                        1004.279          45.000    38927693.918                         749.784          35.000  
J03  38178164.207                        -310.494          42.000    38178174.100                        -231.796          34.000  
R13  20985061.344                       -1927.175          21.000  
R14  19675088.819                        1906.892          42.000  
R24  19251936.262                        -600.775          40.000  
> 2024  3 16  4 47  7.0000049  0 32
C01  37477388.544                         288.427          25.000  
C07  36574613.922                         214.828          36.000  
C09  36387796.453                        -620.685          22.000  
C10  36950997.057                         285.753          32.000  
C16  37201430.186                       -1116.409          23.000  
C23  22609734.706                       -1307.613          27.000  
C27  23859852.468                        2750.709          22.000  
C28  21523915.803                         570.671          32.000  
C37  22291656.407                        1601.660          26.000  
C39  37926128.687                       -1341.536          19.000  
C40  36454462.801                          43.596          30.000  
C43  23884300.843                       -2329.138          29.000  
C46  26008914.403                        3241.740          27.000  
E13                                                                                                                                  23650992.758                         800.735          24.000  
E15                                                                                                                                  25771019.794                       -1230.022          28.000  
E19                                                                                                                                  27250271.630                       -1220.371          14.000  
E21                                                                                                                                  24201613.771                         955.167          24.000  
E27                                                                                                                                  24754979.684                        -434.388          32.000  
G02  20643267.064                         758.977          31.000  
G07  20530830.202                         460.048          35.000  
G08  21762371.024                       -2051.240          40.000    21762377.919                       -1531.313          33.000  
G09  24935650.508                       -2288.373          11.000  
G16  25486021.794                       -2308.185          14.000  
G17  23395584.274                        2456.708          29.000  
G21  20383959.778                        -607.291          34.000  
G27  24692751.164                       -2834.922          27.000    24692795.533                       -2117.303          16.000  
G30                                                                  21857438.510                        1677.594          31.000  
J02  38927493.957                        1006.841          41.000    38927501.452                         751.764          35.000  
J03  38178222.666                        -308.267          43.000    38178233.459                        -230.216          34.000  
R13  20985427.991                       -1925.499          19.000  
R14  19674739.261                        1905.925          43.000  
R24  19252053.181                        -603.258          40.000  
> 2024  3 16  4 47  8.0000051  0 33
C01  37477397.538                         274.790          21.000  
C06  36738556.926                       -1063.371          19.000  
C07  36574633.708                         214.817          32.000  
C10  36951003.353                         285.498          33.000  
C11  25945803.294                       -2762.362          18.000  
C16  37201704.496                       -1117.442          17.000  
C23  22610048.289                       -1309.550          28.000  
C27  23859371.901                        2755.041          27.000  
C28  21523869.335                         556.514          32.000  
C37  22291399.185                        1595.844          35.000  
C39  37926446.767                       -1349.246          25.000  
C40  36454514.365                          16.507          37.000  
C43  23884807.492                       -2332.147          25.000  
C46  26008343.598                        3240.146          14.000  
E13                                                                                                                                  23650847.959                         801.038          22.000  
E15                                                                                                                                  25771391.237                       -1227.159          23.000  
E19                                                                                                                                  27250642.473                       -1221.483          13.000  
E21                                                                                                                                  24201431.498                         954.343          26.000  
E27                                                                                                                                  24755151.165                        -434.048          34.000  
G02  20643181.923                         757.272          32.000  
G07  20530801.122                         454.974          35.000  
G08  21762822.212                       -2050.129          35.000    21762828.807                       -1531.447          32.000  
G09  24936144.866                       -2289.916          10.000  
G14  23277870.466                        2843.937          29.000  
G16  25486517.051                       -2299.964          12.000  
G21  20384132.459                        -607.015          38.000  
G22  25102487.709                        2582.980          18.000  
G27  24693347.751                       -2832.029          28.000    24693395.418                       -2113.814          16.000  
G30  21857062.870                        2246.985          34.000    21857071.564                        1676.244          33.000  
J02  38927363.247                        1006.981          44.000    38927368.643                         751.506          30.000  
J03  38178341.984                        -308.720          43.000    38178352.776                        -230.446          33.000  
R14  19674437.670                        1906.911          40.000  
R24  19252229.159                        -601.578          33.000  
> 2024  3 16  4 47  9.0000051  0 30
C01  37477345.973                         273.344          24.000  
C07  36574592.636                         214.377          32.000  
C09  36388101.641                        -621.330          22.000  
C10  36950949.390                         283.987          29.000  
C11  25946363.007                       -2765.718          18.000  
C16  37201917.049                       -1117.474          18.000  
C23  22610292.920                       -1305.436          23.000  
C27  23858846.065                        2753.806          23.000  
C28  21523769.504                         543.878          25.000  
C37  22291094.596                        1606.272          35.000  
C39  37926703.390                       -1349.878          25.000  
C40  36454513.166                          26.672          35.000  
C43  23885247.887                       -2327.075          42.000  
C46  26007721.529                        3239.116          15.000  
E13                                                                                                                                  23650644.699                         798.158          24.000  
E15                                                                                                                                  25771703.921                       -1225.982          25.000  
E19                                                                                                                                  27250955.456                       -1226.570          13.000  
E21                                                                                                                                  24201189.265                         953.526          30.000  
E27                                                                                                                                  24755261.789                        -434.538          34.000  
G07  20530715.681                         458.031          34.000  
G08  21763211.942                       -2052.976          36.000    21763219.137                       -1539.178          30.000  
G14  23277331.439                        2842.341          28.000  
G16  25486952.650                       -2298.112          10.000  
G21  20384244.881                        -607.220          42.000  
G27  24693884.380                       -2831.359          27.000    24693934.745                       -2113.531          15.000  
G30  21856634.167                        2242.243          36.000    21856645.859                        1675.216          32.000  
J02  38927172.879                        1006.734          42.000    38927178.575                         749.380          27.000  
J03  38178401.343                        -307.150          42.000    38178411.835                        -230.483          32.000  
R14  19674081.817                        1904.927          39.000  
R24  19252342.481                        -601.314          34.000  
> 2024  3 16  4 47 10.0000054  0 34
C01  37477384.047                         274.739          22.000  
C06  36739051.284                       -1064.558          20.000  
C07  36574638.205                         216.647          35.000  
C09  36388312.995                        -623.931          21.000  
C10  36950986.265                         285.214          32.000  
C16  37202221.038                       -1114.436          19.000  
C23  22610637.082                       -1302.859          26.000  
C27  23858409.867                        2754.553          24.000  
C28  21523754.815                         542.321          27.000  
C37  22290875.448                        1598.472          36.000  
C39  37927051.449                       -1349.571          23.000  
C40  36454603.403                          22.870          34.000  
C43  23885785.415                       -2328.567          40.000  
C46  26007346.788                        3200.212          13.000  
E13                                                                                                                                  23650531.678                         800.118          21.000  
E15                                                                                                                                  25772106.542                       -1226.037          28.000  
E19                                                                                                                                  27251358.077                       -1229.163          13.000  
E21                                                                                                                                  24201037.870                         953.214          29.000  
E27                                                                                                                                  24755462.050                        -435.010          33.000  
G02  20642982.860                         755.494          30.000  
G07  20530718.379                         457.019          33.000  
G08  21763691.910                       -2051.850          41.000    21763699.704                       -1532.093          31.000  
G09  24937101.504                       -2294.975          12.000  
G14  23276881.150                        2840.473          28.000  
G17  23394334.439                        2454.241          27.000  
G21  20384450.838                        -609.237          41.000  
G22  25101596.426                        2579.970          17.000  
G27  24694518.441                       -2829.588          23.000    24694563.110                       -2115.681          14.000  
G30  21856296.301                        2242.286          38.000    21856308.293                        1676.355          36.000  
J02  38927069.750                        1008.595          40.000    38927077.845                         749.402          30.000  
J03  38178549.740                        -310.742          39.000    38178559.933                        -230.854          33.000  
R13  20986668.232                       -1921.425          19.000  
R14  19673815.001                        1905.463          38.000  
R24  19252546.040                        -604.062          38.000  
> 2024  3 16  4 47 11.0000054  0 33
C01  37477332.183                         280.925          23.000  
C06  36739256.942                       -1066.071          20.000  
C07  36574593.836                         216.047          34.000  
C09  36388434.411                        -625.412          17.000  
C10  36950932.002                         284.199          36.000  
C16  37202431.193                       -1114.833          20.000  
C23  22610886.209                       -1300.016          29.000  
C27  23857884.330                        2753.275          25.000  
C28  21523650.187                         547.023          35.000  
C37  22290573.857                        1599.360          35.000  
C39  37927311.968                       -1345.049          24.000  
C40  36454599.206                          16.008          37.000  
C43  23886239.301                       -2326.027          24.000  
C46  26006569.427                        3234.796          15.000  
E13                                                                                                                                  23650327.519                         799.987          24.000  
E15                                                                                                                                  25772419.225                       -1227.001          28.000  
E19                                                                                                                                  27251671.061                       -1234.551          12.000  
E21                                                                                                                                  24200796.537                         951.682          28.000  
E27                                                                                                                                  24755573.273                        -435.180          34.000  
G02  20642838.061                         755.060          31.000  
G07  20530634.138                         454.806          37.000  
G08  21764080.740                       -2052.787          38.000    21764090.334                       -1532.552          28.000  
G09  24937540.700                       -2301.624          12.000  
G14  23276343.623                        2840.675          30.000  
G17  23393870.660                        2454.180          25.000  
G21  20384568.057                        -610.031          42.000  
G27  24695059.566                       -2831.447          21.000    24695102.436                       -2117.599          13.000  
G30  21855867.298                        2243.752          36.000    21855879.589                        1673.907          34.000  
J02  38926879.382                        1005.298          41.000    38926886.877                         751.643          27.000  
J03  38178608.799                        -308.845          40.000    38178618.093                        -231.430          32.000  
R13  20987033.679                       -1925.569          19.000  
R14  19673458.248                        1904.560          37.000  
R24  19252656.963                        -605.093          40.000  
> 2024  3 16  4 47 12.0000056  0 32
C01  37477338.179                         288.069          23.000  
C06  36739520.459                       -1066.325          20.000  
C07  36574613.322                         214.077          34.000  
C09  36388616.085                        -622.202          19.000  
C10  36950937.398                         283.841          33.000  
C16  37202706.402                       -1116.686          23.000  
C23  22611193.197                       -1310.744          19.000  
C27  23857425.348                        2755.399          26.000  
C28  21523605.818                         539.609          37.000  
C37  22290326.828                        1598.454          33.000  
C39  37927629.149                       -1350.893          27.000  
C40  36454658.265                          -6.389          35.000  
C43  23886750.447                       -2361.416          28.000  
C46  26006009.115                        3235.955          15.000  
E13                                                                                                                                  23650183.619                         797.507          27.000  
E15                                                                                                                                  25772791.867                       -1228.338          28.000  
E21                                                                                                                                  24200616.962                         950.406          26.000  
E27                                                                                                                                  24755743.555                        -436.384          32.000  
G02  20642755.318                         754.036          29.000  
G07  20530610.754                         453.225          37.000  
G08  21764533.127                       -2052.590          38.000    21764541.222                       -1532.977          31.000  
G09  24938037.756                       -2310.730          10.000  
G14  23275868.452                        2843.105          26.000  
G17  23393466.240                        2455.934          27.000  
G21  20384744.935                        -611.021          44.000  
G27  24695656.753                       -2834.045          24.000  
G30  21855503.350                        2239.841          36.000    21855513.543                        1673.900          34.000  
J02  38926745.375                        1004.511          40.000    38926755.868                         751.247          31.000  
J03  38178727.517                        -314.595          38.000    38178737.410                        -231.201          31.000  
R13  20987453.388                       -1931.630          24.000  
R14  19673158.756                        1903.189          37.000  
R24  19252832.042                        -606.992          40.000  
> 2024  3 16  4 47 13.0000059  0 32
C01  37477373.854                         280.904          23.000  
C06  36739813.356                       -1064.629          23.000  
C07  36574658.891                         214.243          35.000  
C09  36388823.542                        -626.494          20.000  
C10  36950972.774                         284.097          31.000  
C16  37203010.092                       -1119.180          23.000  
C23  22611528.365                       -1301.306          32.000  
C27  23856989.750                        2754.284          29.000  
C28  21523591.128                         534.853          36.000  
C37  22290107.979                        1592.564          39.000  
C39  37927977.807                       -1350.494          24.000  
C40  36454747.004                          -3.703          33.000  
C43  23887278.081                       -2332.618          41.000  
C46  26005648.464                        3203.484          12.000  
E13                                                                                                                                  23650069.997                         796.263          27.000  
E15                                                                                                                                  25773194.789                       -1229.026          26.000  
E21                                                                                                                                  24200466.166                         951.173          26.000  
G02  20642701.655                         752.563          29.000  
G07  20530608.655                         450.275          37.000  
G08  21765015.793                       -2055.523          34.000    21765023.288                       -1538.479          27.000  
G09  24938565.990                       -2314.545          10.000  
G14  23275417.864                        2842.765          25.000  
G16  25488936.077                       -2292.114           9.000  
G17  23393089.401                        2453.886          27.000  
G21  20384950.293                        -614.183          44.000  
G27  24696288.715                       -2834.258          23.000    24696327.688                       -2114.407          12.000  
G30  21855168.182                        2240.763          35.000    21855176.876                        1670.400          32.000  
J02  38926645.544                        1003.675          43.000    38926653.938                         749.706          26.000  
J03  38178875.914                        -312.939          37.000    38178886.107                        -232.526          29.000  
R13  20987905.475                       -1934.044          26.000  
R14  19672899.735                        1900.551          40.000  
R24  19253036.200                        -609.242          42.000  
> 2024  3 16  4 47 14.0000059  0 31
C06  36740018.115                       -1064.118          22.000  
C07  36574619.918                         211.172          35.000  
C09  36388943.758                        -626.733          20.000  
C10  36950920.610                         275.464          36.000  
C16  37203228.041                       -1121.733          23.000  
C23  22611782.888                       -1312.430          26.000  
C27  23856462.715                        2751.294          34.000  
C28  21523490.697                         534.227          30.000  
C37  22289804.889                        1587.058          38.000  
C39  37928239.826                       -1349.510          27.000  
C40  36454739.209                           8.684          40.000  
C43  23887726.271                       -2342.939          36.000  
C46  26004857.312                        3229.158          14.000  
E13                                                                                                                                  23649867.038                         792.234          32.000  
E15                                                                                                                                  25773508.371                       -1232.192          31.000  
E21                                                                                                                                  24200223.334                         951.958          27.000  
G02  20642559.553                         748.055          34.000  
G07  20530523.215                         446.598          38.000  
G08  21765404.324                       -2056.924          37.000    21765414.217                       -1538.351          27.000  
G09  24939006.685                       -2313.748           9.000  
G14  23274877.637                        2838.905          25.000  
G16  25489373.174                       -2294.578          10.000  
G17  23392629.520                        2451.415          23.000  
G21  20385067.212                        -616.872          41.000  
G27                                                                  24696864.916                       -2115.740          14.000  
G30  21854738.879                        2236.570          38.000    21854752.070                        1669.608          35.000  
J02  38926456.075                         999.965          43.000    38926461.471                         749.806          26.000  
J03  38178936.472                        -317.538          39.000    38178945.466                        -234.660          28.000  
R13  20988264.927                       -1935.558          27.000  
R14  19672541.483                        1899.156          37.000  
R24  19253151.321                        -614.030          41.000  
> 2024  3 16  4 47 15.0000061  0 31
C07  36574643.002                         205.775          36.000  
C09  36389124.233                        -630.542          21.000  
C10  36950927.805                         271.042          34.000  
C16  37203505.349                       -1123.767          22.000  
C23  22612089.276                       -1321.056          38.000  
C27  23855995.638                        2748.060          35.000  
C28  21523448.427                         528.734          29.000  
C37  22289560.259                        1593.552          39.000  
C39  37928556.107                       -1355.078          27.000  
C40  36454800.367                           8.858          38.000  
C43  23888234.719                       -2335.767          42.000  
C46  26004298.499                        3228.039          15.000  
C59  37546938.296                         263.134          37.000  
E13                                                                                                                                  23649725.236                         790.125          33.000  
E15                                                                                                                                  25773882.213                       -1233.624          29.000  
E21                                                                                                                                  24200039.861                         946.732          28.000  
G02  20642477.110                         744.659          39.000  
G07  20530498.332                         444.003          38.000  
G08  21765855.212                       -2060.340          38.000    21765864.206                       -1537.998          33.000  
G09  24939508.538                       -2314.351           9.000  
G14  23274399.169                        2834.928          27.000  
G16  25489872.329                       -2288.049           9.000  
G17  23392224.200                        2447.527          26.000  
G21  20385246.188                        -616.035          40.000  
G27  24697432.124                       -2841.814          21.000    24697463.002                       -2114.686          15.000  
G30  21854373.132                        2236.169          34.000    21854387.522                        1665.941          31.000  
J02  38926323.867                         998.389          42.000    38926330.762                         746.400          28.000  
J03  38179058.488                        -322.895          39.000    38179065.083                        -237.435          29.000  
R13  20988684.336                       -1938.210          28.000  
R14  19672249.185                        1895.075          37.000  
R24  19253327.299                        -615.349          38.000  
> 2024  3 16  4 47 16.0000064  0 30
C06  36740579.926                       -1071.962          24.000  
C07  36574693.966                         205.171          33.000  
C09  36389335.287                        -633.965          22.000  
C10  36950961.682                         274.028          35.000  
C16  37203812.337                       -1125.104          24.000  
C23  22612432.239                       -1319.261          32.000  
C27  23855561.239                        2746.461          28.000  
C28  21523434.936                         544.289          34.000  
C37  22289342.609                        1610.892          37.000  
C39  37928905.365                       -1358.661          28.000  
C40  36454882.810                           8.130          38.000  
C43  23888777.943                       -2339.764          30.000  
C46  26003769.965                        3219.565          14.000  
C59  37546976.369                         261.628          35.000  
E13                                                                                                                                  23649613.413                         791.106          31.000  
E15                                                                                                                                  25774287.532                       -1235.682          30.000  
E21                                                                                                                                  24199887.866                         945.188          29.000  
G02  20642424.947                         742.662          42.000  
G07  20530504.927                         441.493          38.000  
G08  21766336.079                       -2066.372          40.000    21766345.073                       -1539.459          32.000  
G09  24940042.768                       -2320.617           9.000  
G16  25490394.267                       -2279.448           9.000  
G21  20385453.344                        -623.437          41.000  
G27                                                                  24698091.067                       -2115.959          16.000  
G30  21854038.264                        2231.582          37.000    21854052.055                        1666.262          34.000  
J02  38926224.036                         996.538          42.000    38926231.531                         744.620          29.000  
J03  38179208.684                        -318.531          38.000    38179215.579                        -236.895          27.000  
R13  20989137.922                       -1941.032          28.000  
R14  19671983.869                        1892.604          39.000  
R24  19253529.359                        -617.927          37.000  
> 2024  3 16  4 47 17.0000064  0 31
C01  37477285.415                         283.610          35.000  
C06  36740787.082                       -1074.113          24.000  
C07  36574654.693                         203.129          34.000  
C09  36389459.102                        -634.572          23.000  
C10  36950912.516                         272.237          35.000  
C16  37204030.885                       -1128.191          22.000  
C23  22612689.461                       -1321.199          39.000  
C27  23855029.707                        2743.555          29.000  
C28  21523336.005                         525.966          29.000  
C37  22289034.423                        1605.383          34.000  
C39  37929171.881                       -1355.797          28.000  
C40  36454885.508                           4.098          38.000  
C43  23889222.236                       -2339.714          43.000  
C46  26003169.181                        3229.143          21.000  
C59  37546926.004                         259.888          34.000  
E13                                                                                                                                  23649412.552                         788.126          31.000  
E15                                                                                                                                  25774602.014                       -1236.125          26.000  
E21                                                                                                                                  24199645.934                         943.450          27.000  
G02  20642284.943                         739.832          43.000  
G07  20530418.887                         439.835          39.000  
G08  21766728.507                       -2062.834          37.000    21766737.501                       -1542.402          30.000  
G09  24941036.879                       -2274.983          24.000  
G16  25490828.067                       -2273.012           9.000  
G17  23391384.781                        2443.891          24.000  
G21  20385570.863                        -623.310          41.000  
G27  24698611.807                       -2841.752          23.000    24698630.994                       -2118.683          15.000  
G30  21853617.056                        2227.148          36.000    21853626.049                        1664.553          31.000  
J02  38926035.466                         995.566          43.000    38926041.762                         742.925          27.000  
J03  38179266.844                        -322.355          39.000    38179277.037                        -239.085          26.000  
R14  19671627.716                        1891.916          35.000  
R24  19253645.978                        -621.911          38.000  
> 2024  3 16  4 47 18.0000067  0 34
C01  37477316.893                         282.739          31.000  
C06  36741084.177                       -1074.492          24.000  
C07  36574706.857                         205.622          33.000  
C09  36389674.053                        -638.728          23.000  
C10  36950949.690                         270.537          37.000  
C11  25951611.173                       -2772.922          15.000  
C16  37204335.774                       -1131.258          23.000  
C23  22613026.727                       -1321.828          32.000  
C27  23854592.909                        2741.052          23.000  
C28  21523323.713                         523.417          37.000  
C37  22288823.369                        1582.296          39.000  
C39  37929518.741                       -1362.752          29.000  
C40  36454976.945                           6.609          33.000  
C43  23889770.556                       -2342.220          34.000  
C46  26002802.235                        3205.298          13.000  
C59  37546965.876                         257.941          41.000  
E13                                                                                                                                  23649301.329                         787.725          31.000  
E15                                                                                                                                  25775006.135                       -1238.803          22.000  
E21                                                                                                                                  24199494.239                         943.247          26.000  
E27                                                                                                                                  24756746.961                        -445.642          35.000  
G02  20642232.180                         736.970          43.000  
G07  20530425.182                         435.329          38.000  
G08  21767212.972                       -2065.649          42.000    21767220.767                       -1541.882          33.000  
G09  24941355.259                       -2275.798          21.000  
G16  25492782.414                       -2317.977          24.000  
G17  23391011.540                        2439.851          27.000  
G21  20385780.718                        -626.697          40.000  
G22  25098104.744                        2566.150          17.000  
G27                                                                  24699259.958                       -2122.233          15.000  
G30  21853282.487                        2225.079          37.000    21853293.580                        1660.991          35.000  
J02  38925933.537                         993.051          35.000    38925942.531                         742.040          29.000  
J03  38179418.539                        -321.742          38.000    38179428.132                        -240.932          31.000  
R14  19671361.800                        1889.610          33.000  
R24  19253854.334                        -623.205          40.000  
> 2024  3 16  4 47 19.0000069  0 31
C01  37477319.592                         281.450          32.000  
C06  36741350.093                       -1076.835          22.000  
C07  36574727.843                         200.508          36.000  
C09  36389860.224                        -639.937          25.000  
C10  36950956.885                         276.092          33.000  
C16  37204615.181                       -1132.396          22.000  
C23  22613344.507                       -1325.247          42.000  
C27  23854130.929                        2737.651          25.000  
C28  21523283.841                         521.378          39.000  
C37  22288574.841                        1581.359          36.000  
C39  37929844.315                       -1365.699          24.000  
C40  36455039.002                          -0.227          34.000  
C43  23890282.901                       -2341.611          31.000  
C46  26002085.431                        3229.697          21.000  
C59  37546975.770                         256.048          36.000  
E13                                                                                                                                  23649161.027                         783.369          30.000  
E15                                                                                                                                  25775383.273                       -1240.956          21.000  
E21                                                                                                                                  24199315.562                         941.818          21.000  
E27                                                                                                                                  24756920.241                        -447.319          35.000  
G02  20642152.435                         734.084          40.000  
G07  20530402.698                         435.277          37.000  
G08  21767665.958                       -2067.324          42.000    21767673.753                       -1542.895          35.000  
G14  23272487.692                        2825.817          28.000  
G21  20385960.893                        -629.470          43.000  
G22  25097688.332                        2565.673          17.000  
G27  24699847.252                       -2845.411          18.000    24699858.344                       -2120.006          14.000  
G30  21852920.338                        2222.537          38.000    21852930.531                        1660.357          36.000  
J02  38925804.626                         989.324          36.000    38925813.920                         740.931          31.000  
J03  38179542.353                        -324.801          40.000    38179549.548                        -241.584          33.000  
R14  19671065.005                        1885.413          36.000  
R24  19254029.413                        -626.506          43.000  
> 2024  3 16  4 47 20.0000069  0 31
C01  37477263.830                         280.364          36.000  
C06  36741558.748                       -1082.491          22.000  
C07  36574687.671                         198.208          36.000  
C09  36389984.038                        -643.944          24.000  
C10  36950904.721                         271.169          35.000  
C16  37204832.530                       -1133.117          24.000  
C23  22613599.031                       -1326.899          44.000  
C27  23853608.690                        2729.048          14.000  
C28  21523183.110                         525.211          35.000  
C37  22288270.851                        1578.377          36.000  
C39  37930107.833                       -1371.500          25.000  
C40  36455032.706                          -0.840          37.000  
C43  23890722.397                       -2344.996          31.000  
C46  26001444.175                        3221.049          10.000  
C59  37546927.203                         253.806          43.000  
E13                                                                                                                                  23648961.665                         782.358          30.000  
E15                                                                                                                                  25775700.454                       -1244.453          21.000  
E21                                                                                                                                  24199075.129                         938.924          20.000  
E27                                                                                                                                  24757034.462                        -448.232          35.000  
G02  20642012.732                         734.306          40.000  
G07  20530321.154                         437.042          36.000  
G08  21768058.687                       -2068.639          42.000    21768066.781                       -1544.505          34.000  
G21  20386081.110                        -631.651          43.000  
G22  25097201.169                        2562.573          17.000  
G27  24700388.077                       -2845.193          24.000    24700394.972                       -2117.424          14.000  
G30  21852498.530                        2225.218          33.000    21852508.123                        1658.796          32.000  
J02  38925618.155                         987.856          38.000    38925625.051                         739.998          30.000  
J03  38179602.611                        -326.095          39.000    38179611.005                        -243.193          32.000  
R13  20990756.801                       -1957.973          19.000  
R14  19670710.950                        1884.125          41.000  
R24  19254146.032                        -628.152          44.000  
> 2024  3 16  4 47 21.0000072  0 33
C01  37477300.705                         278.129          34.000  
C06  36741857.341                       -1081.803          23.000  
C07  36574740.134                         197.823          36.000  
C09  36390199.589                        -644.595          21.000  
C10  36950940.696                         266.561          33.000  
C16  37205141.916                       -1133.024          23.000  
C23  22613940.495                       -1328.597          29.000  
C27  23853173.991                        2734.296          22.000  
C28  21523173.217                         516.690          36.000  
C37  22288063.095                        1554.289          38.000  
C39  37930451.395                       -1366.429          25.000  
C40  36455122.044                           5.023          36.000  
C43  23891273.416                       -2340.340          25.000  
C46  26000939.624                        3226.977          20.000  
C59  37546970.673                         246.017          38.000  
E13                                                                                                                                  23648851.940                         781.843          30.000  
E15                                                                                                                                  25776108.172                       -1243.359          18.000  
E21                                                                                                                                  24198924.633                         939.847          23.000  
E27                                                                                                                                  24757238.620                        -449.125          37.000  
G02  20641963.566                         731.010          40.000  
G07  20530327.750                         431.280          37.000  
G08  21768545.250                       -2070.217          40.000    21768550.646                       -1546.850          30.000  
G14  23271501.075                        2822.684          26.000  
G17  23389783.590                        2437.803          26.000  
G21  20386290.964                        -633.291          39.000  
G22  25096809.640                        2562.136          16.000  
G27  24701022.138                       -2846.971          25.000    24701023.637                       -2120.450          14.000  
G30  21852163.062                        2220.995          36.000    21852176.253                        1657.804          33.000  
J02  38925518.324                         990.531          38.000    38925525.819                         739.129          28.000  
J03  38179755.805                        -330.036          37.000    38179762.101                        -243.827          33.000  
R13  20991216.083                       -1956.186          21.000  
R14  19670445.634                        1882.292          42.000  
R24  19254354.688                        -629.877          44.000  
