     3.03           OBSERVATION DATA    M: Mixed            RINEX VERSION / TYPE
Geo++ RINEX Logger  Geo++               20240227 095421 UTC PGM / RUN BY / DATE
************************************************************COMMENT
This file was generated by the Geo++ RINEX Logger App       COMMENT
for Android devices (Version 2.1.6). If you encounter       COMMENT
any issues, please send an email to android@geopp.de        COMMENT
Filtering Mode: BEST                                        COMMENT
************************************************************COMMENT
Geo++                                                       MARKER NAME
GEODETIC                                                    MARKER TYPE
Geo++               Geo++                                   OBSERVER / AGENCY
unknown             HUAWEI              ALN-AL00            REC # / TYPE / VERS
unknown             ALN-AL00                                ANT # / TYPE
 -2265287.6537  5005502.9912  3228626.5369                  APPROX POSITION XYZ
        0.0000        0.0000        0.0000                  ANTENNA: DELTA H/E/N
G    8 C1C L1C D1C S1C C5Q L5Q D5Q S5Q                      SYS / # / OBS TYPES
R    4 C1C L1C D1C S1C                                      SYS / # / OBS TYPES
E   12 C1B L1B D1B S1B C1C L1C D1C S1C C5Q L5Q D5Q S5Q      SYS / # / OBS TYPES
C    4 C2I L2I D2I S2I                                      SYS / # / OBS TYPES
J    8 C1C L1C D1C S1C C5Q L5Q D5Q S5Q                      SYS / # / OBS TYPES
  2024     2    27     9    54   39.0000059     GPS         TIME OF FIRST OBS
 24 R01  1 R02 -4 R03  5 R04  6 R05  1 R06 -4 R07  5 R08  6 GLONASS SLOT / FRQ #
    R09 -2 R10 -5 R11  0 R12 -1 R13 -2 R14 -7 R15  0 R16 -1 GLONASS SLOT / FRQ #
    R17  4 R18 -3 R19  3 R20  2 R21  4 R22 -3 R23  3 R24  2 GLONASS SLOT / FRQ #
G L1C                                                       SYS / PHASE SHIFT
G L5Q -0.25000                                              SYS / PHASE SHIFT
R L1C                                                       SYS / PHASE SHIFT
E L1B                                                       SYS / PHASE SHIFT
E L1C +0.50000                                              SYS / PHASE SHIFT
E L5Q -0.25000                                              SYS / PHASE SHIFT
C L2I                                                       SYS / PHASE SHIFT
J L1C                                                       SYS / PHASE SHIFT
J L5Q -0.25000                                              SYS / PHASE SHIFT
 C1C    0.000 C1P    0.000 C2C    0.000 C2P    0.000        GLONASS COD/PHS/BIS
                                                            END OF HEADER
> 2024  2 27  9 54 39.0000059  3  1
Geo++                                                       MARKER NAME
> 2024  2 27  9 54 39.0000059  0 37
C02  37601674.402                         228.116          24.000  
C03  36812407.501                         230.858          40.000  
C07  36068032.421                         386.890          35.000  
C08  36714781.885                        1066.393          38.000  
C10  36057055.220                         655.858          31.000  
C11  22914924.928                        1111.095          10.000  
C12  22620064.056                        -696.450          37.000  
C13  37485872.970                        1174.876          39.000  
C21  23754156.440                        1872.236          42.000  
C22  24899732.974                        -725.360          44.000  
C23  25413788.600                        1464.837          29.000  
C24  24537480.256                       -2811.165          42.000  
C25  23340621.824                       -1045.675          36.000  
C34  22170898.506                         459.376          37.000  
C38  36092314.710                         741.184          43.000  
C40  36075182.471                         477.811          40.000  
C42  25276426.694                        3298.252          29.000  
C43  24428576.748                        1888.910          34.000  
C44  23795930.720                       -1327.028          42.000  
C59  37482705.063                         240.734          40.000  
C60  37888368.029                         246.453          35.000  
E02                                                                                                                                  24669022.591                        1285.012          34.000  
E25                                                                                                                                  23574746.842                        -722.924          33.000  
E36                                                                                                                                  23982176.784                         359.042          35.000  
G03                                                                  22608664.747                       -1734.318          33.000  
G06                                                                  20995541.189                         761.532          39.000  
G11  23533115.263                        2529.313          32.000  
G14  21181622.068                       -2388.844          38.000  
G17  20967027.929                         204.790          40.000  
G22  20676907.974                        -646.209          43.000  
J02  36853867.598                         596.556          38.000  
J03  39484390.825                         105.081          36.000    39484404.615                          77.079          30.000  
R01  21768601.611                        3087.889          36.000  
R13  22331799.517                       -4009.954          24.000  
R14  20127167.752                        -760.653          37.000  
R17  22348517.743                        1833.574          22.000  
R23  22618342.347                       -1956.059          35.000  
> 2024  2 27  9 54 40.0000059  0 35
C02  37601630.333                         231.296          25.000  
C03  36812363.731                         231.629          41.000  
C07  36067955.674                         386.631          35.000  
C08  36714577.427                        1065.977          37.000  
C10  36056929.907                         655.748          32.000  
C11  22914711.775                        1115.297          12.000  
C12  22620195.964                        -696.610          36.000  
C13  37485646.627                        1174.414          39.000  
C21  23753806.282                        1870.501          35.000  
C22  24899867.580                        -695.078          41.000  
C24  24538019.283                       -2811.397          43.000  
C25  23340822.984                       -1046.355          38.000  
C34  22170811.267                         459.047          36.000  
C38  36092172.909                         740.751          43.000  
C40  36075075.145                         525.637          35.000  
C42  25275790.534                        3298.461          30.000  
C43  24428193.014                        1889.789          26.000  
C44  23796187.942                       -1327.315          43.000  
C59  37482657.696                         241.472          39.000  
C60  37888320.362                         247.855          36.000  
E02                                                                                                                                  24668695.517                        1284.716          34.000  
E25                                                                                                                                  23574930.615                        -723.541          32.000  
E36                                                                                                                                  23982085.348                         358.696          35.000  
G03                                                                  22609106.042                       -1734.913          33.000  
G06                                                                  20995346.924                         761.076          39.000  
G11  23532636.195                        2528.729          32.000  
G14  21182079.551                       -2389.592          37.000  
G17  20966988.356                         204.444          40.000  
G19  20774271.871                        1502.702          31.000  
G22  20677030.889                        -646.991          44.000  
J02  36853753.377                         596.193          38.000  
J03  39484370.439                         104.973          37.000    39484384.829                          78.536          30.000  
R01  21768022.711                        3087.484          36.000  
R13  22332549.897                       -4011.971          27.000  
R23  22618707.794                       -1956.179          35.000  
> 2024  2 27  9 54 41.0000061  0 38
C02  37601645.622                         231.517          27.000  
C03  36812378.121                         231.917          41.000  
C07  36067941.284                         386.164          34.000  
C08  36714433.527                        1065.433          37.000  
C10  36056865.451                         655.445          32.000  
C11  22914556.183                        1118.601          13.000  
C12  22620389.031                        -697.070          37.000  
C13  37485480.842                        1173.877          39.000  
C21  23753496.297                        1869.662          44.000  
C22  24900067.542                        -713.324          35.000  
C24  24538619.167                       -2811.796          43.000  
C25  23341086.202                       -1047.160          38.000  
C34  22170782.786                         458.532          36.000  
C38  36092090.466                         740.217          43.000  
C40  36075063.753                         477.538          31.000  
C42  25275209.537                        3304.887          36.000  
C43  24427912.108                        1887.998          35.000  
C44  23796504.223                       -1327.748          44.000  
C59  37482671.786                         240.307          39.000  
C60  37888334.152                         245.974          37.000  
E02                                                                                                                                  24668428.103                        1284.201          34.000  
E25                                                                                                                                  23575175.546                        -724.100          33.000  
E36                                                                                                                                  23982053.870                         358.218          35.000  
G03                                                                  22609607.894                       -1735.602          33.000  
G06  20995205.122                        1018.666          31.000    20995213.216                         760.516          39.000  
G09                                                                  24948329.031                        1907.982          19.000  
G11  23532215.886                        2527.723          32.000  
G14  21182594.295                       -2390.471          37.000  
G17  20967010.541                         203.887          40.000  
G19  20774044.029                        1502.343          30.000  
G22  20677212.863                        -647.921          44.000  
J02  36853698.815                         595.692          39.000  
J03  39484410.012                         104.662          37.000    39484424.702                          77.403          29.000  
R01  21767503.171                        3086.130          36.000  
R13  22333359.937                       -4012.347          27.000  
R17  22347905.267                        1840.390          20.000  
R23  22619136.198                       -1957.127          35.000  
R24  20503107.194                        -164.718          30.000  
> 2024  2 27  9 54 42.0000061  0 37
C02  37601600.953                         232.217          28.000  
C03  36812334.351                         230.872          42.000  
C07  36067869.933                         385.756          35.000  
C08  36714227.569                        1064.866          37.000  
C10  36056742.237                         654.714          32.000  
C11  22914342.131                        1118.798          14.000  
C12  22620520.639                        -697.589          36.000  
C13  37485254.199                        1173.312          38.000  
C21  23753147.038                        1868.700          35.000  
C22  24900211.442                        -762.739          38.000  
C24  24539155.796                       -2829.704          36.000  
C25  23341288.262                       -1047.962          38.000  
C34  22170698.245                         458.062          36.000  
C38  36091948.964                         739.597          43.000  
C40  36074949.832                         490.427          32.000  
C42  25274576.974                        3304.354          37.000  
C43  24427528.374                        1887.787          28.000  
C44  23796759.646                       -1328.317          44.000  
C59  37482624.719                         239.399          39.000  
C60  37888284.686                         245.332          37.000  
E02                                                                                                                                  24668101.329                        1283.630          34.000  
E25                                                                                                                                  23575359.918                        -724.693          32.000  
E36                                                                                                                                  23981962.733                         357.835          35.000  
G03                                                                  22610049.788                       -1736.242          33.000  
G06  20995009.058                        1017.852          31.000    20995019.550                         759.983          39.000  
G09                                                                  24947850.562                        1905.125          16.000  
G11  23531732.620                        2526.980          32.000  
G17  20966970.368                         203.179          41.000  
G19  20773764.322                        1501.592          30.000  
G22  20677335.778                        -648.975          44.000  
J02  36853581.896                         595.216          39.000  
J03  39484392.624                         104.304          38.000    39484404.615                          76.982          30.000  
R01  21766926.370                        3086.169          37.000  
R13  22334109.718                       -4012.777          28.000  
R14  20127649.818                        -764.532          33.000  
R23  22619515.136                       -1956.406          35.000  
R24  20503134.176                        -165.417          29.000  
> 2024  2 27  9 54 43.0000064  0 37
C02  37601646.822                         231.464          29.000  
C03  36812379.920                         229.713          41.000  
C07  36067884.623                         385.235          35.000  
C08  36714113.948                        1064.262          36.000  
C10  36056707.161                         654.093          32.000  
C11  22914215.918                        1115.566          14.000  
C12  22620743.985                        -698.109          36.000  
C13  37485119.292                        1172.696          38.000  
C21  23752864.034                        1888.934          32.000  
C22  24900443.781                        -758.763          37.000  
C23  25412795.388                        1462.869          27.000  
C24  24539791.056                       -2812.791          44.000  
C25  23341579.661                       -1048.845          39.000  
C34  22170699.444                         457.594          35.000  
C38  36091896.800                         738.999          43.000  
C40  36074971.117                         476.126          31.000  
C42  25274031.952                        3312.067          32.000  
C43  24427276.848                        1887.235          34.000  
C44  23797104.707                       -1328.712          44.000  
C59  37482668.489                         239.320          38.000  
C60  37888326.657                         245.439          36.000  
E02                                                                                                                                  24667863.893                        1282.898          34.000  
E25                                                                                                                                  23575634.228                        -725.279          33.000  
E36                                                                                                                                  23981961.833                         357.283          36.000  
G03                                                                  22610582.519                       -1736.870          33.000  
G06  20994913.724                        1016.962          30.000    20994915.822                         759.453          39.000  
G09                                                                  24947460.233                        1905.590          17.000  
G11  23531340.492                        2526.534          31.000  
G17  20967021.633                         202.702          41.000  
G19  20773566.759                        1500.997          30.000  
G22  20677549.231                        -649.883          44.000  
J02  36853557.013                         594.647          40.000  
J03  39484461.876                         103.987          38.000    39484474.467                          76.813          29.000  
R01  21766441.606                        3083.764          36.000  
R13  22334953.933                       -4014.656          29.000  
R23  22619987.309                       -1956.853          36.000  
R24  20503259.489                        -165.172          27.000  
> 2024  2 27  9 54 44.0000064  0 38
C02  37601602.452                         231.466          28.000  
C03  36812335.550                         229.084          41.000  
C07  36067810.574                         384.793          35.000  
C08  36713910.389                        1063.724          36.000  
C10  36056581.848                         653.707          32.000  
C12  22620876.793                        -698.600          36.000  
C13  37484894.148                        1172.211          38.000  
C21  23752510.279                        1867.148          43.000  
C22  24900583.485                        -729.735          45.000  
C23  25412515.082                        1462.286          26.000  
C24  24540331.582                       -2813.219          44.000  
C25  23341782.920                       -1049.767          39.000  
C34  22170609.506                         457.147          35.000  
C38  36091755.298                         738.463          43.000  
C40  36074873.685                         475.815          39.000  
C42  25273393.394                        3317.682          32.000  
C43  24426913.799                        1886.992          34.000  
C44  23797359.831                       -1329.144          44.000  
C59  37482624.419                         239.141          38.000  
C60  37888279.290                         245.204          36.000  
E02                                                                                                                                  24667537.419                        1282.352          34.000  
E25                                                                                                                                  23575820.099                        -725.913          33.000  
E36                                                                                                                                  23981871.896                         356.720          36.000  
G03                                                                  22611025.013                       -1737.608          33.000  
G06  20994713.762                        1016.352          30.000    20994722.156                         758.920          39.000  
G09                                                                  24946971.571                        1908.641          18.000  
G11  23530857.826                        2525.688          32.000  
G14  21184052.486                       -2393.081          37.000  
G19  20773283.755                        1500.655          30.000  
G22  20677673.045                        -650.883          44.000  
J02  36853444.891                         594.115          39.000  
J03  39484441.190                         103.766          38.000    39484454.381                          77.187          29.000  
R01  21765865.105                        3082.983          36.000  
R13  22335702.815                       -4014.019          30.000  
R14  20128029.955                        -767.495          33.000  
R17  22346951.627                        1827.867          24.000  
R23  22620348.559                       -1958.343          36.000  
R24  20503294.565                        -167.683          28.000  
> 2024  2 27  9 54 45.0000067  0 37
C02  37601648.321                         231.884          28.000  
C03  36812381.419                         228.977          41.000  
C07  36067828.562                         384.426          35.000  
C08  36713795.268                        1063.228          36.000  
C10  36056539.277                         653.436          32.000  
C11  22913879.851                        1115.828          12.000  
C12  22621101.637                        -698.917          36.000  
C13  37484760.740                        1171.742          38.000  
C21  23752241.365                        1866.369          43.000  
C22  24900813.725                        -730.661          45.000  
C23  25412325.913                        1460.091          27.000  
C24  24540962.046                       -2813.602          44.000  
C25  23342074.918                       -1050.541          39.000  
C34  22170612.804                         456.541          35.000  
C38  36091703.434                         737.926          43.000  
C40  36074878.481                         473.269          31.000  
C42  25272854.367                        3303.276          37.000  
C43  24426640.988                        1886.476          34.000  
C44  23797703.693                       -1329.595          44.000  
C59  37482669.388                         238.203          39.000  
C60  37888324.259                         245.643          36.000  
E02                                                                                                                                  24667300.583                        1281.810          34.000  
E25                                                                                                                                  23576094.110                        -726.610          33.000  
E36                                                                                                                                  23981870.397                         356.418          36.000  
G03                                                                  22611558.044                       -1738.271          33.000  
G06  20994608.535                        1015.672          29.000    20994619.028                         758.282          39.000  
G09  24946508.991                        2552.652          17.000    24946574.046                        1908.729          18.000  
G11  23530471.094                        2525.228          32.000  
G14  21184596.009                       -2393.817          37.000  
G19  20773094.286                        1499.970          29.000  
G22  20677887.097                        -651.871          44.000  
J02  36853419.409                         593.638          38.000  
J03  39484509.843                         103.412          38.000    39484524.233                          78.108          29.000  
R01  21765373.745                        3082.426          36.000  
R13  22336544.332                       -4014.188          31.000  
R14  20128264.692                        -767.930          32.000  
R23  22620805.142                       -1958.096          37.000  
> 2024  2 27  9 54 46.0000067  0 39
C02  37601603.651                         232.141          28.000  
C03  36812336.450                         229.174          41.000  
C07  36067753.314                         383.846          35.000  
C08  36713593.208                        1062.555          36.000  
C10  36056413.364                         652.991          32.000  
C11  22913667.298                        1114.210          12.000  
C12  22621240.141                        -699.333          36.000  
C13  37484536.196                        1171.205          38.000  
C21  23751883.113                        1886.156          38.000  
C22  24900953.129                        -731.591          45.000  
C23  25412060.297                        1468.074          25.000  
C24  24541502.871                       -2814.041          45.000  
C25  23342277.278                       -1051.367          39.000  
C34  22170523.166                         456.091          34.000  
C38  36091561.332                         737.361          43.000  
C40  36074787.344                         473.609          31.000  
C42  25272214.310                        3310.533          31.000  
C43  24426279.139                        1885.820          34.000  
C44  23797959.416                       -1330.034          44.000  
C59  37482622.620                         237.619          38.000  
C60  37888275.693                         244.295          36.000  
E02                                                                                                                                  24666973.809                        1281.190          34.000  
E25                                                                                                                                  23576279.681                        -727.127          32.000  
E36                                                                                                                                  23981779.559                         355.964          35.000  
G03                                                                  22612000.538                       -1738.865          34.000  
G06  20994417.567                        1014.513          29.000    20994425.662                         757.769          39.000  
G09                                                                  24946085.984                        1909.388          18.000  
G11  23529987.529                        2524.574          31.000  
G14  21185050.795                       -2394.756          36.000  
G17  20966997.949                         201.002          42.000  
G19  20772801.089                        1499.409          30.000  
G22  20678010.611                        -652.802          44.000  
J02  36853306.687                         593.169          39.000  
J03  39484492.155                         103.128          39.000    39484504.147                          77.234          29.000  
R01  21764800.842                        3082.212          37.000  
R13  22337298.010                       -4015.312          31.000  
R14  20128409.492                        -769.348          33.000  
R15  22264078.499                        2907.875          24.000  
R23  22621172.988                       -1959.683          37.000  
> 2024  2 27  9 54 47.0000069  0 39
C02  37601618.641                         232.438          28.000  
C03  36812354.138                         229.082          42.000  
C07  36067738.624                         383.678          35.000  
C08  36713448.708                        1062.159          36.000  
C10  36056354.305                         652.673          32.000  
C11  22913515.303                        1114.375          11.000  
C12  22621435.606                        -699.723          36.000  
C13  37484371.909                        1170.707          38.000  
C21  23751583.621                        1864.837          43.000  
C22  24901152.491                        -732.379          45.000  
C23  25411840.249                        1462.767          27.000  
C24  24542101.856                       -2814.261          40.000  
C25  23342538.997                       -1052.072          39.000  
C34  22170491.988                         455.740          34.000  
C38  36091479.189                         736.929          43.000  
C40  36074737.879                         490.774          35.000  
C42  25271642.606                        3302.541          38.000  
C43  24425960.160                        1885.909          31.000  
C44  23798274.797                       -1330.347          44.000  
C59  37482636.111                         237.792          39.000  
C60  37888291.282                         242.432          36.000  
E02                                                                                                                                  24666707.594                        1280.768          34.000  
E25                                                                                                                                  23576524.911                        -727.695          32.000  
E36                                                                                                                                  23981748.681                         355.611          35.000  
G03                                                                  22612502.990                       -1739.426          33.000  
G06  20994282.661                        1013.582          28.000    20994292.554                         757.376          40.000  
G09  24945587.129                        2557.429          15.000    24945659.679                        1908.383          18.000  
G11  23529561.224                        2523.902          31.000  
G14  21185563.739                       -2395.470          35.000  
G17  20967019.834                         200.522          41.000  
G19  20772569.949                        1498.959          29.000  
G22  20678194.684                        -653.615          44.000  
J02  36853256.022                         592.811          38.000  
J03  39484533.826                         102.927          39.000    39484544.319                          77.072          29.000  
R01  21764284.899                        3080.693          36.000  
R13  22338110.448                       -4015.956          31.000  
R14  20128616.948                        -770.493          33.000  
R17  22346059.445                        1831.649          25.000  
R23  22621596.894                       -1958.886          37.000  
> 2024  2 27  9 54 48.0000069  0 37
C02  37601573.972                         232.426          28.000  
C03  36812310.068                         228.541          41.000  
C07  36067664.875                         383.032          35.000  
C08  36713243.051                        1061.448          37.000  
C10  36056227.193                         652.169          32.000  
C11  22913300.352                        1116.485          10.000  
C12  22621571.412                        -700.320          36.000  
C13  37484147.665                        1170.070          38.000  
C21  23751236.461                        1863.926          35.000  
C22  24901297.590                        -756.817          41.000  
C23  25411560.543                        1458.807          28.000  
C24  24542644.481                       -2814.911          45.000  
C25  23342739.558                       -1053.028          39.000  
C34  22170402.949                         455.100          34.000  
C38  36091337.387                         736.281          43.000  
C40  36074660.532                         474.068          39.000  
C42  25271008.545                        3302.031          37.000  
C43  24425614.199                        1885.079          34.000  
C44  23798529.621                       -1330.895          44.000  
C59  37482591.742                         237.283          39.000  
C60  37888243.315                         243.694          36.000  
E02                                                                                                                                  24666381.120                        1280.219          33.000  
E25                                                                                                                                  23576710.783                        -728.354          32.000  
E36                                                                                                                                  23981658.144                         355.030          36.000  
G03  22612934.091                       -2330.392          33.000    22612946.683                       -1740.137          34.000  
G06  20994085.697                        1013.325          26.000    20994099.487                         756.767          40.000  
G09                                                                  24945172.217                        1908.406          18.000  
G11  23529089.051                        2523.071          31.000  
G14  21186020.323                       -2396.393          36.000  
G17  20966981.461                         199.771          41.000  
G22  20678319.997                        -654.717          44.000  
J02  36853142.101                         592.182          38.000  
J03  39484513.140                         102.512          38.000    39484524.532                          77.015          29.000  
R01  21763710.797                        3080.368          35.000  
R13  22338864.426                       -4018.371          30.000  
R14  20128761.748                        -771.711          33.000  
R23  22621957.245                       -1959.168          37.000  
> 2024  2 27  9 54 49.0000072  0 38
C02  37601619.241                         233.024          27.000  
C03  36812357.135                         227.796          41.000  
C07  36067681.064                         382.848          35.000  
C08  36713129.729                        1061.179          37.000  
C10  36056191.818                         651.954          32.000  
C11  22913179.236                        1116.633           9.000  
C12  22621796.256                        -700.683          36.000  
C13  37484010.659                        1169.789          38.000  
C21  23750957.055                        1863.413          43.000  
C22  24901528.730                        -750.531          37.000  
C23  25411371.673                        1454.641          28.000  
C24  24543274.944                       -2815.109          45.000  
C25  23343032.155                       -1053.659          39.000  
C34  22170405.947                         454.851          34.000  
C38  36091286.422                         735.911          43.000  
C40  36074651.538                         481.533          36.000  
C42  25270465.021                        3301.987          36.000  
C43  24425329.396                        1884.468          30.000  
C44  23798875.881                       -1331.192          44.000  
C59  37482635.511                         236.532          39.000  
C60  37888286.785                         243.368          36.000  
E02                                                                                                                                  24666145.183                        1279.735          34.000  
E25                                                                                                                                  23576986.892                        -728.867          33.000  
E36                                                                                                                                  23981658.144                         354.708          35.000  
G03  22613466.223                       -2330.883          33.000    22613480.613                       -1740.661          34.000  
G06                                                                  20993996.659                         756.332          40.000  
G09                                                                  24944774.692                        1907.219          18.000  
G11  23528702.019                        2522.840          32.000  
G14  21186569.543                       -2397.026          36.000  
G17  20967032.425                         199.446          41.000  
G22  20678533.449                        -655.443          44.000  
J02  36853120.815                         592.010          38.000  
J03  39484585.091                         102.470          38.000    39484595.283                          73.110          29.000  
R01  21763230.229                        3080.278          35.000  
R13  22339709.241                       -4017.534          29.000  
R14  20128997.685                        -772.797          32.000  
R17  22345455.963                        1824.227          25.000  
R23  22622412.330                       -1960.546          37.000  
> 2024  2 27  9 54 50.0000072  0 37
C02  37601575.171                         232.335          28.000  
C03  36812312.466                         227.577          42.000  
C07  36067607.315                         382.485          35.000  
C08  36712926.770                        1060.700          36.000  
C10  36056065.305                         651.555          32.000  
C11  22912969.981                        1119.434          10.000  
C12  22621934.161                        -700.999          36.000  
C13  37483785.215                        1169.350          37.000  
C21  23750611.394                        1862.556          36.000  
C22  24901668.733                        -764.306          36.000  
C23  25411076.378                        1454.709          27.000  
C24  24543816.369                       -2815.552          45.000  
C25  23343235.414                       -1054.368          40.000  
C34  22170318.408                         454.292          34.000  
C38  36091144.321                         735.461          43.000  
C40  36074568.496                         473.427          40.000  
C42  25269836.356                        3301.494          30.000  
C43  24424969.046                        1884.265          31.000  
C44  23799131.004                       -1331.616          43.000  
C59  37482589.343                         236.450          38.000  
C60  37888240.017                         243.200          36.000  
E02                                                                                                                                  24665819.009                        1279.154          34.000  
E25                                                                                                                                  23577172.463                        -729.416          33.000  
E36                                                                                                                                  23981567.606                         354.376          36.000  
G03  22613904.220                       -2331.553          33.000    22613923.407                       -1741.179          33.000  
G06                                                                  20993803.892                         755.805          40.000  
G09                                                                  24944288.428                        1907.652          19.000  
G11  23528228.946                        2522.116          32.000  
G14  21187029.125                       -2397.832          35.000  
G17  20966996.151                         198.939          41.000  
G19  20771803.680                        1498.131          27.000  
G22  20678657.263                        -656.356          44.000  
J02  36853004.796                         591.582          38.000  
J03  39484567.703                         102.225          39.000    39484576.397                          74.756          29.000  
R01  21762658.225                        3079.563          36.000  
R13  22340459.022                       -4018.249          30.000  
R23  22622784.372                       -1959.313          36.000  
> 2024  2 27  9 54 51.0000074  0 38
C02  37601590.760                         231.733          27.000  
C03  36812328.655                         227.326          41.000  
C07  36067593.824                         382.075          35.000  
C08  36712781.370                        1060.070          36.000  
C10  36056001.150                         651.163          32.000  
C11  22912821.284                        1122.932           9.000  
C12  22622131.424                        -701.394          37.000  
C13  37483620.330                        1168.813          37.000  
C21  23750302.608                        1861.829          43.000  
C22  24901868.095                        -748.193          35.000  
C23  25410874.917                        1454.215          28.000  
C24  24544416.854                       -2815.932          45.000  
C25  23343497.733                       -1055.207          40.000  
C34  22170293.225                         453.941          33.000  
C38  36091063.976                         734.995          43.000  
C40  36074540.915                         472.817          31.000  
C42  25269262.254                        3300.119          30.000  
C43  24424666.855                        1884.989          30.000  
C44  23799446.386                       -1331.949          44.000  
C59  37482604.933                         236.161          38.000  
C60  37888251.110                         243.275          36.000  
E02                                                                                                                                  24665553.393                        1278.657          34.000  
E25                                                                                                                                  23577418.293                        -730.092          32.000  
E36                                                                                                                                  23981537.327                         353.955          36.000  
G03  22614412.368                       -2332.722          32.000    22614427.358                       -1741.909          33.000  
G06  20993637.507                        1013.438          19.000    20993671.684                         755.251          40.000  
G09                                                                  24943862.124                        1906.341          19.000  
G14  21187540.271                       -2398.485          34.000  
G17  20967018.035                         198.410          41.000  
G19  20771581.533                        1497.040          27.000  
G22  20678842.235                        -657.261          44.000  
J02  36852954.131                         591.065          38.000  
J03  39484604.577                         101.885          39.000    39484616.569                          75.136          29.000  
R13  22341265.764                       -4019.242          28.000  
R14  20129344.845                        -775.767          33.000  
R15  22261602.513                        2901.358          25.000  
R17  22344811.109                        1825.884          24.000  
R23  22623206.480                       -1960.485          37.000  
> 2024  2 27  9 54 52.0000077  0 36
C02  37601636.928                         228.805          28.000  
C03  36812375.123                         226.786          41.000  
C07  36067612.112                         381.671          35.000  
C08  36712669.248                        1059.607          36.000  
C10  36055965.175                         650.850          32.000  
C11  22912703.465                        1128.207           9.000  
C12  22622356.568                        -701.742          37.000  
C13  37483483.324                        1168.227          37.000  
C21  23750037.591                        1861.060          43.000  
C22  24902093.839                        -736.676          44.000  
C23  25410664.463                        1452.672          26.000  
C24  24545039.523                       -2791.378          36.000  
C25  23343789.731                       -1056.010          40.000  
C34  22170298.622                         453.565          34.000  
C38  36091013.012                         734.374          43.000  
C40  36074541.215                         472.467          31.000  
C42  25268708.837                        3300.761          36.000  
C43  24424395.243                        1883.664          30.000  
C44  23799792.347                       -1332.382          44.000  
C59  37482650.501                         236.258          38.000  
C60  37888296.078                         241.181          36.000  
E02                                                                                                                                  24665316.856                        1278.190          33.000  
E25                                                                                                                                  23577693.802                        -730.699          33.000  
E36                                                                                                                                  23981536.728                         353.559          36.000  
G03  22614948.097                       -2333.417          31.000    22614960.988                       -1742.549          34.000  
G06  20993533.779                        1012.076          20.000    20993568.555                         754.650          40.000  
G09                                                                  24943466.098                        1906.079          19.000  
G11  23527401.519                        2520.972          31.000  
G17  20967069.900                         197.784          41.000  
G22  20679056.587                        -658.184          43.000  
J02  36852931.646                         590.499          37.000  
J03  39484676.827                         101.693          39.000    39484686.720                          76.585          29.000  
R01  21761647.925                        3077.093          36.000  
R13  22342108.180                       -4018.302          29.000  
R14  20129580.481                        -777.065          33.000  
R23  22623665.762                       -1959.911          37.000  
> 2024  2 27  9 54 53.0000077  0 36
C02  37601592.859                         228.095          27.000  
C03  36812331.353                         226.167          42.000  
C07  36067538.063                         381.095          35.000  
C08  36712465.089                        1058.925          36.000  
C10  36055840.761                         650.083          32.000  
C11  22912495.110                        1124.513          11.000  
C12  22622490.576                        -702.371          37.000  
C13  37483258.480                        1167.458          37.000  
C21  23749680.838                        1860.192          43.000  
C22  24902235.041                        -737.675          44.000  
C23  25410385.956                        1452.634          26.000  
C24  24545583.046                       -2824.308          36.000  
C25  23343990.891                       -1056.977          40.000  
C34  22170213.181                         452.992          34.000  
C38  36090871.809                         733.700          43.000  
C40  36074449.778                         472.056          31.000  
C42  25268086.168                        3299.602          29.000  
C43  24424045.385                        1883.261          34.000  
C44  23800047.470                       -1332.925          44.000  
C59  37482602.834                         235.479          38.000  
C60  37888249.311                         242.090          37.000  
E02                                                                                                                                  24664991.282                        1277.636          34.000  
E25                                                                                                                                  23577880.273                        -731.291          33.000  
E36                                                                                                                                  23981446.790                         352.856          36.000  
G03  22615391.790                       -2334.492          31.000    22615404.981                       -1743.171          33.000  
G06  20993343.711                        1010.328          21.000    20993376.688                         754.072          40.000  
G09                                                                  24942980.734                        1906.416          19.000  
G14  21188534.982                       -2400.559          31.000  
G17  20967032.126                         197.139          41.000  
G22  20679181.001                        -659.267          43.000  
J02  36852818.924                         589.942          38.000  
J03  39484656.441                         101.192          38.000    39484667.234                          75.419          29.000  
R01  21761072.623                        3076.293          34.000  
R13  22342863.957                       -4019.146          29.000  
R14  20129726.181                        -778.583          33.000  
R23  22624031.209                       -1960.857          37.000  
> 2024  2 27  9 54 54.0000079  0 36
C02  37601609.947                         227.183          28.000  
C03  36812348.142                         226.242          42.000  
C07  36067524.273                         380.526          35.000  
C08  36712321.788                        1058.140          37.000  
C10  36055774.807                         649.567          32.000  
C12  22622685.741                        -703.001          37.000  
C13  37483093.294                        1166.896          37.000  
C21  23749387.341                        1817.823          38.000  
C22  24902443.997                        -747.982          37.000  
C23  25410166.208                        1452.413          26.000  
C24  24546188.627                       -2817.370          45.000  
C25  23344253.809                       -1057.814          40.000  
C34  22170185.000                         452.227          34.000  
C38  36090791.765                         733.104          43.000  
C40  36074403.910                         498.094          33.000  
C42  25267499.474                        3299.778          35.000  
C43  24423731.802                        1883.250          30.000  
C44  23800363.451                       -1333.486          44.000  
C59  37482617.224                         235.262          39.000  
C60  37888262.801                         242.338          36.000  
E02                                                                                                                                  24664725.666                        1276.897          34.000  
E25                                                                                                                                  23578126.703                        -732.107          33.000  
E36                                                                                                                                  23981416.811                         352.357          36.000  
G03  22615902.337                       -2335.482          31.000    22615908.932                       -1744.005          33.000  
G06  20993213.601                        1007.812          23.000    20993244.179                         753.499          40.000  
G09  24942475.883                        2556.421          16.000    24942554.429                        1905.187          18.000  
G14  21189051.225                       -2401.471          31.000  
G17  20967053.411                         196.349          41.000  
G19  20770878.220                        1494.412          27.000  
G22  20679368.071                        -660.284          43.000  
J02  36852764.962                         589.392          37.000  
J03  39484698.112                         100.749          38.000    39484707.406                          74.685          29.000  
R01  21760553.982                        3075.731          33.000  
R08  22460943.213                        -228.225          42.000  
R13  22343678.193                       -4020.227          29.000  
R23  22624450.619                       -1962.109          37.000  
> 2024  2 27  9 54 55.0000079  0 36
C02  37601566.477                         226.505          27.000  
C03  36812304.372                         226.005          41.000  
C07  36067452.322                         380.084          35.000  
C08  36712117.630                        1057.629          37.000  
C10  36055649.193                         649.307          32.000  
C12  22622821.247                        -703.455          37.000  
C13  37482868.450                        1166.526          36.000  
C21  23749035.385                        1858.348          35.000  
C22  24902589.396                        -747.001          39.000  
C23  25409887.701                        1450.723          27.000  
C24  24546725.855                       -2785.974          40.000  
C25  23344457.069                       -1058.717          40.000  
C34  22170099.559                         451.726          34.000  
C38  36090650.862                         732.543          44.000  
C40  36074328.662                         471.128          31.000  
C42  25266878.304                        3299.904          27.000  
C43  24423369.953                        1882.962          29.000  
C44  23800619.474                       -1333.946          44.000  
C59  37482571.955                         235.254          39.000  
C60  37888216.633                         241.846          36.000  
E02                                                                                                                                  24664400.391                        1276.313          33.000  
E25                                                                                                                                  23578313.173                        -732.563          32.000  
E36                                                                                                                                  23981327.173                         351.929          36.000  
G03  22616345.130                       -2336.416          32.000    22616353.524                       -1744.815          33.000  
G06  20993025.631                        1007.737          27.000    20993052.312                         752.862          40.000  
G09  24941988.121                        2554.759          16.000    24942067.566                        1904.611          18.000  
G14  21189507.809                       -2402.438          32.000  
G17  20967017.136                         195.721          40.000  
G22  20679492.785                        -661.203          43.000  
J02  36852654.038                         588.894          37.000  
J03  39484679.825                         100.497          38.000    39484688.819                          74.962          30.000  
R01  21759975.083                        3075.435          32.000  
R08  22460974.691                        -229.139          42.000  
R13  22344431.272                       -4021.955          29.000  
R15  22259603.197                        2895.583          23.000  
R23  22624819.663                       -1961.392          37.000  
> 2024  2 27  9 54 56.0000082  0 36
C02  37601612.645                         225.251          27.000  
C03  36812351.439                         225.354          41.000  
C07  36067469.111                         379.630          35.000  
C08  36712003.409                        1056.991          37.000  
C10  36055613.818                         648.738          32.000  
C12  22623045.192                        -703.968          37.000  
C13  37482733.544                        1165.842          37.000  
C21  23748759.276                        1857.612          43.000  
C22  24902810.943                        -740.566          44.000  
C23  25409700.630                        1449.745          28.000  
C24  24547357.818                       -2829.247          35.000  
C25  23344750.565                       -1059.618          40.000  
C34  22170104.656                         451.279          35.000  
C38  36090600.797                         731.934          44.000  
C40  36074319.069                         446.755          32.000  
C42  25266334.481                        3301.492          29.000  
C43  24423098.641                        1881.579          30.000  
C44  23800966.034                       -1334.350          43.000  
C59  37482617.824                         234.062          39.000  
C60  37888260.703                         241.398          37.000  
E02                                                                                                                                  24664165.354                        1275.580          34.000  
E25                                                                                                                                  23578590.182                        -733.137          33.000  
E36                                                                                                                                  23981327.472                         351.454          36.000  
G03  22616878.761                       -2337.369          32.000    22616888.654                       -1745.410          34.000  
G06                                                                  20992950.383                         752.229          40.000  
G09                                                                  24941671.540                        1904.780          17.000  
G14  21190051.633                       -2403.229          30.000  
G17  20967069.300                         195.153          41.000  
G22  20679709.535                        -662.316          43.000  
J02  36852630.355                         588.336          37.000  
J03  39484751.176                         100.084          38.000    39484759.270                          75.514          29.000  
R01  21759488.520                        3074.115          30.000  
R13  22345276.987                       -4021.717          29.000  
